[{
  "_id": {
    "$oid": "686f72a7d2cdb69b05bdc7bb"
  },
  "shopId": 1001,
  "shop_en": "Fortress - Central Store",
  "shop_cn": "豐澤 - 中環店",
  "address_en": "123 Queen's Road Central, Hong Kong",
  "address_cn": "香港中環皇后大道中123號",
  "Longitude": 114.15417841001269,
  "Latitude": 22.284407213098802,
  "shop_tel": 98200045
},
{
  "_id": {
    "$oid": "686f72a7d2cdb69b05bdc7bc"
  },
  "shopId": 1002,
  "shop_en": "Broadway - Causeway Bay Store",
  "shop_cn": "百老匯 - 銅鑼灣店",
  "address_en": "456 Hennessy Road, Causeway Bay, Hong Kong",
  "address_cn": "香港銅鑼灣軒尼詩道456號",
  "Longitude": 114.18197429651906,
  "Latitude": 22.27968400929139,
  "shop_tel": 34279819
},
{
  "_id": {
    "$oid": "686f72a7d2cdb69b05bdc7bd"
  },
  "shopId": 1003,
  "shop_en": "Fortress - Mong Kok Store",
  "shop_cn": "豐澤 - 旺角店",
  "address_en": "789 Nathan Road, Mong Kok, Hong Kong",
  "address_cn": "香港旺角彌敦道789號",
  "Longitude": 114.16769511001343,
  "Latitude": 22.326067371215153,
  "shop_tel": 98200327
},
{
  "_id": {
    "$oid": "686f72a7d2cdb69b05bdc7be"
  },
  "shopId": 1004,
  "shop_en": "Broadway - Kowloon Bay Store",
  "shop_cn": "百老匯 - 九龍灣店",
  "address_en": "123 MegaBox, Kowloon Bay, Hong Kong",
  "address_cn": "香港九龍灣Megabox商場123號",
  "Longitude": 114.20845455419102,
  "Latitude": 22.32015812961787,
  "shop_tel": 29893000
},
{
  "_id": {
    "$oid": "686f72a7d2cdb69b05bdc7bf"
  },
  "shopId": 1005,
  "shop_en": "Fortress - Tsuen Wan Store",
  "shop_cn": "豐澤 - 荃灣店",
  "address_en": "456 Tai Ho Road, Tsuen Wan, Hong Kong",
  "address_cn": "香港荃灣大河道456號",
  "Longitude": 114.11441639652092,
  "Latitude": 22.37111772840679,
  "shop_tel": 98200437
},
{
  "_id": {
    "$oid": "686f72a7d2cdb69b05bdc7c0"
  },
  "shopId": 1006,
  "shop_en": "Broadway - Shatin Store",
  "shop_cn": "百老匯 - 沙田店",
  "address_en": "123 New Town Plaza, Shatin, Hong Kong",
  "address_cn": "香港沙田新城市廣場123號",
  "Longitude": 114.18838737882034,
  "Latitude": 22.382348601985296,
  "shop_tel": 26067762
},
{
  "_id": {
    "$oid": "686f72a7d2cdb69b05bdc7c1"
  },
  "shopId": 1007,
  "shop_en": "Fortress - Central Store",
  "shop_cn": "豐澤 - 中環店",
  "address_en": "234 Queen's Road Central, Hong Kong",
  "address_cn": "香港中環皇后大道中234號",
  "Longitude": 114.15417841001269,
  "Latitude": 22.284407213098802,
  "shop_tel": 98200045
},
{
  "_id": {
    "$oid": "686f72a7d2cdb69b05bdc7c2"
  },
  "shopId": 1008,
  "shop_en": "Broadway - Causeway Bay Store",
  "shop_cn": "百老匯 - 銅鑼灣店",
  "address_en": "123 Hennessy Road, Causeway Bay, Hong Kong",
  "address_cn": "香港銅鑼灣軒尼詩道123號",
  "Longitude": 114.18197429651906,
  "Latitude": 22.27968400929139,
  "shop_tel": 34279819
},
{
  "_id": {
    "$oid": "686f72a7d2cdb69b05bdc7c3"
  },
  "shopId": 1009,
  "shop_en": "Fortress - Mong Kok Store",
  "shop_cn": "豐澤 - 旺角店",
  "address_en": "456 Nathan Road, Mong Kok, Hong Kong",
  "address_cn": "香港旺角彌敦道456號",
  "Longitude": 114.16769511001343,
  "Latitude": 22.326067371215153,
  "shop_tel": 98200327
},
{
  "_id": {
    "$oid": "686f72a7d2cdb69b05bdc7c4"
  },
  "shopId": 1010,
  "shop_en": "Broadway - Kowloon Bay Store",
  "shop_cn": "百老匯 - 九龍灣店",
  "address_en": "456 MegaBox, Kowloon Bay, Hong Kong",
  "address_cn": "香港九龍灣Megabox商場456號",
  "Longitude": 114.20845455419102,
  "Latitude": 22.32015812961787,
  "shop_tel": 29893000
},
{
  "_id": {
    "$oid": "686f72a7d2cdb69b05bdc7c5"
  },
  "shopId": 1011,
  "shop_en": "Fortress - Tsuen Wan Store",
  "shop_cn": "豐澤 - 荃灣店",
  "address_en": "123 Tai Ho Road, Tsuen Wan, Hong Kong",
  "address_cn": "香港荃灣大河道123號",
  "Longitude": 114.11441639652092,
  "Latitude": 22.37111772840679,
  "shop_tel": 98200437
},
{
  "_id": {
    "$oid": "686f72a7d2cdb69b05bdc7c6"
  },
  "shopId": 1012,
  "shop_en": "Broadway - Shatin Store",
  "shop_cn": "百老匯 - 沙田店",
  "address_en": "456 New Town Plaza, Shatin, Hong Kong",
  "address_cn": "香港沙田新城市廣場456號",
  "Longitude": 114.18838737882034,
  "Latitude": 22.382348601985296,
  "shop_tel": 26067762
},
{
  "_id": {
    "$oid": "686f72a7d2cdb69b05bdc7c7"
  },
  "shopId": 1013,
  "shop_en": "Fortress - Central Store",
  "shop_cn": "豐澤 - 中環店",
  "address_en": "456 Queen's Road Central, Hong Kong",
  "address_cn": "香港中環皇后大道中456號",
  "Longitude": 114.15417841001269,
  "Latitude": 22.284407213098802,
  "shop_tel": 98200045
},
{
  "_id": {
    "$oid": "686f72a7d2cdb69b05bdc7c8"
  },
  "shopId": 1014,
  "shop_en": "Broadway - Causeway Bay Store",
  "shop_cn": "百老匯 - 銅鑼灣店",
  "address_en": "234 Hennessy Road, Causeway Bay, Hong Kong",
  "address_cn": "香港銅鑼灣軒尼詩道234號",
  "Longitude": 114.18197429651906,
  "Latitude": 22.27968400929139,
  "shop_tel": 34279819
},
{
  "_id": {
    "$oid": "686f72a7d2cdb69b05bdc7c9"
  },
  "shopId": 1015,
  "shop_en": "Fortress - Mong Kok Store",
  "shop_cn": "豐澤 - 旺角店",
  "address_en": "123 Nathan Road, Mong Kok, Hong Kong",
  "address_cn": "香港旺角彌敦道123號",
  "Longitude": 114.16769511001343,
  "Latitude": 22.326067371215153,
  "shop_tel": 98200327
},
{
  "_id": {
    "$oid": "686f72a7d2cdb69b05bdc7ca"
  },
  "shopId": 1016,
  "shop_en": "Broadway - Kowloon Bay Store",
  "shop_cn": "百老匯 - 九龍灣店",
  "address_en": "789 MegaBox, Kowloon Bay, Hong Kong",
  "address_cn": "香港九龍灣Megabox商場789號",
  "Longitude": 114.20845455419102,
  "Latitude": 22.32015812961787,
  "shop_tel": 29893000
},
{
  "_id": {
    "$oid": "686f72a7d2cdb69b05bdc7cb"
  },
  "shopId": 1017,
  "shop_en": "Fortress - Tsuen Wan Store",
  "shop_cn": "豐澤 - 荃灣店",
  "address_en": "789 Tai Ho Road, Tsuen Wan, Hong Kong",
  "address_cn": "香港荃灣大河道789號",
  "Longitude": 114.11441639652092,
  "Latitude": 22.37111772840679,
  "shop_tel": 98200437
},
{
  "_id": {
    "$oid": "686f72a7d2cdb69b05bdc7cc"
  },
  "shopId": 1018,
  "shop_en": "Broadway - Shatin Store",
  "shop_cn": "百老匯 - 沙田店",
  "address_en": "789 New Town Plaza, Shatin, Hong Kong",
  "address_cn": "香港沙田新城市廣場789號",
  "Longitude": 114.18838737882034,
  "Latitude": 22.382348601985296,
  "shop_tel": 26067762
},
{
  "_id": {
    "$oid": "686f72a7d2cdb69b05bdc7cd"
  },
  "shopId": 1019,
  "shop_en": "Broadway - Cheung Sha Wan Store",
  "shop_cn": "百老匯 - 長沙灣店",
  "address_en": "399 Castle Peak Rd, Heya Crystal Shopping Centre, Cheung Sha Wan, Hong Kong",
  "address_cn": "香港長沙灣399號喜薈商場",
  "Longitude": 114.15497,
  "Latitude": 22.3393,
  "shop_tel": 28397605
}]